City_ID,City,Lat,Lng,Max Temp,Humidity,Cloudiness,Wind Speed,Country,Date
0,katsuren-haebaru,26.3369,127.8719,30.01,88,20,3.09,JP,1721068470
1,bodaybo,57.8506,114.1933,15.16,92,99,0.6,RU,1721068471
2,bredasdorp,-34.5322,20.0403,10.74,87,84,0.97,ZA,1721068472
3,victorica,-36.2151,-65.4359,13.99,28,0,9.19,AR,1721068474
4,new norfolk,-42.7826,147.0587,11.62,99,99,1.28,AU,1721068475
5,papatowai,-46.5619,169.4708,9.61,95,100,6.57,NZ,1721068476
6,zaozersk,69.4005,32.4476,11.41,88,0,2.87,RU,1721068477
7,basciftlik,40.5469,37.1692,14.61,82,100,1.61,TR,1721068479
8,vargashi,55.3556,65.8467,16.03,86,72,4.92,RU,1721068480
9,uturoa,-16.7333,-151.4333,26.3,77,7,5.03,PF,1721068481
10,lihue,21.9789,-159.3672,25.97,70,40,8.23,US,1721068482
11,grytviken,-54.2811,-36.5092,-1.28,82,14,5.85,GS,1721068484
12,laminusa,5.5549,120.9136,28.24,76,94,2.48,PH,1721068485
13,port elizabeth,-33.918,25.5701,13.16,81,0,6.17,ZA,1721068486
14,afaahiti,-17.75,-149.2833,26.93,76,3,6.4,PF,1721068487
15,punta arenas,-53.15,-70.9167,5.01,81,0,5.14,CL,1721068489
16,vilyuchinsk,52.9306,158.4028,13.15,88,82,4.16,RU,1721068490
17,puerto natales,-51.7236,-72.4875,10.25,66,75,3.09,CL,1721068491
18,isangel,-19.55,169.2667,23.97,94,100,2.12,VU,1721068493
19,bubaque,11.2833,-15.8333,26.59,84,100,7.62,GW,1721068494
20,invercargill,-46.4,168.35,1.99,93,100,1.9,NZ,1721068418
21,wailua homesteads,22.0669,-159.378,25.63,71,40,8.23,US,1721068496
22,port-aux-francais,-49.35,70.2167,1.9,76,82,14.82,TF,1721068497
23,edinburgh of the seven seas,-37.0676,-12.3116,13.41,82,100,13.33,SH,1721068499
24,mokhotlong,-29.2894,29.0675,3.21,17,9,2.3,LS,1721068500
25,ust'-kalmanka,52.1207,83.305,20.9,94,93,2.66,RU,1721068501
26,margaret river,-33.95,115.0667,10.97,81,9,3.96,AU,1721068503
27,olonkinbyen,70.9221,-8.7187,4.88,96,99,3.07,SJ,1721068504
28,deqen,29.9618,90.7188,10.97,87,100,0.89,CN,1721068505
29,yuxi,24.355,102.5422,17.97,98,100,1.06,CN,1721068507
30,blackmans bay,-43.0167,147.3167,10.96,96,100,0.89,AU,1721068508
31,touros,-5.1989,-35.4608,26.3,71,66,7.56,BR,1721068509
32,adamstown,-25.066,-130.1015,19.13,69,29,3.51,PN,1721068512
33,'ali sabieh,11.1558,42.7125,36.07,34,100,5.89,DJ,1721068513
34,eydhafushi,5.1033,73.0708,28.68,81,100,5.79,MV,1721068514
35,tres arroyos,-38.3739,-60.2798,13.58,47,0,7.19,AR,1721068517
36,san patricio,28.017,-97.5169,32.93,47,100,4.43,US,1721068518
37,waitangi,-43.9535,-176.5597,9.9,79,100,6.35,NZ,1721068519
38,fort bragg,35.139,-79.006,37.33,46,0,1.54,US,1721068520
39,west island,-12.1568,96.8225,26.99,78,31,4.63,CC,1721068408
40,jianshui,23.6363,102.8264,19.68,96,20,1.18,CN,1721068523
41,lompoc,34.6391,-120.4579,24.08,77,20,4.63,US,1721068524
42,cooma,-36.2333,149.1333,4.91,88,100,2.66,AU,1721068525
43,chonchi,-42.6128,-73.8092,7.84,97,100,2.27,CL,1721068527
44,balkanabat,39.5108,54.3671,27.41,52,0,3.33,TM,1721068528
45,ust-nera,64.5667,143.2,15.64,60,12,0.94,RU,1721068529
46,gadzhiyevo,69.2551,33.3362,13.95,86,0,1.94,RU,1721068530
47,iskateley,67.6803,53.1512,15.35,91,21,3.04,RU,1721068532
48,port isabel,26.0734,-97.2086,33.04,62,20,4.63,US,1721068533
49,new plymouth,-39.0667,174.0833,14.34,100,16,1.65,NZ,1721068534
50,queenstown,-31.8976,26.8753,5.92,32,0,3.27,ZA,1721068535
51,flying fish cove,-10.4217,105.6791,24.82,83,40,6.69,CX,1721068538
52,isafjordur,66.0755,-23.124,16.02,59,0,0.0,IS,1721068539
53,whitehorse,60.7161,-135.0538,18.43,52,75,7.2,CA,1721068375
54,zaragoza,41.6561,-0.8773,35.01,28,0,3.09,ES,1721068542
55,ribeira grande,38.5167,-28.7,25.22,88,40,4.63,PT,1721068543
56,atafu village,-8.5421,-172.5159,28.12,76,34,8.17,TK,1721068544
57,carnarvon,-24.8667,113.6333,17.47,58,0,5.91,AU,1721068545
58,tiksi,71.6872,128.8694,10.13,75,7,3.07,RU,1721068547
59,port blair,11.6667,92.75,26.02,89,100,2.57,IN,1721068548
60,at taj,24.2049,23.2857,33.41,13,0,4.85,LY,1721068549
61,necochea,-38.5473,-58.7368,13.22,50,0,5.91,AR,1721068550
62,happy valley-goose bay,53.3168,-60.3315,22.17,35,75,4.12,CA,1721068552
63,hithadhoo,-0.6,73.0833,28.63,71,100,0.96,MV,1721068554
64,luderitz,-26.6481,15.1594,15.08,66,0,5.25,NA,1721068555
65,qamdo,31.1667,97.2333,10.07,91,100,2.5,CN,1721068556
66,makurazaki,31.2667,130.3167,21.9,96,99,1.96,JP,1721068557
67,hasaki,35.7333,140.8333,22.22,91,100,3.62,JP,1721068559
68,jamestown,42.097,-79.2353,24.77,72,52,8.28,US,1721068341
69,colonia,50.9333,6.95,25.7,63,0,2.06,DE,1721068563
70,anadyr,64.75,177.4833,11.28,53,0,6.0,RU,1721068568
71,cabo san lucas,22.8909,-109.9124,34.23,55,0,3.6,MX,1721068059
72,aasiaat,68.7098,-52.8699,3.32,93,84,1.6,GL,1721068571
73,erenhot,43.6475,111.9767,17.45,72,100,10.46,CN,1721068572
74,nabire,-3.3667,135.4833,23.8,95,100,1.49,ID,1721068573
75,college,64.8569,-147.8028,13.59,82,75,0.45,US,1721068575
76,ploudalmezeau,48.5333,-4.65,17.93,85,100,7.2,FR,1721068576
77,bilibino,68.0546,166.4372,6.54,82,60,0.78,RU,1721068577
78,boende,-0.2167,20.8667,27.61,52,81,1.34,CD,1721068579
79,ancud,-41.8697,-73.8203,8.11,96,100,4.91,CL,1721068580
80,hermanus,-34.4187,19.2345,8.22,78,16,1.39,ZA,1721068581
81,port mathurin,-19.6833,63.4167,22.44,64,100,10.65,MU,1721068582
82,iqaluit,63.7506,-68.5145,13.85,54,40,4.12,CA,1721068391
83,temryuk,45.2722,37.3811,26.12,28,85,4.17,RU,1721068585
84,manokwari,-0.8667,134.0833,25.88,82,85,0.69,ID,1721068586
85,madimba,-10.4,40.3333,22.36,85,4,3.89,TZ,1721068587
86,hadibu,12.65,54.0333,26.26,81,100,8.07,YE,1721068589
87,arawa,-6.2132,155.5367,24.45,89,100,1.6,PG,1721068590
88,colby,39.3958,-101.0524,38.03,25,0,4.63,US,1721068591
89,chabahar,25.2919,60.643,28.81,86,31,4.39,IR,1721068592
90,yulinshi,38.2906,109.7494,20.85,91,24,4.32,CN,1721068594
91,stanley,54.868,-1.6985,17.77,84,0,2.06,GB,1721068595
92,suining,30.508,105.5733,26.25,91,100,2.77,CN,1721068596
93,albany,42.6001,-73.9662,33.84,56,75,0.45,US,1721068597
94,gryazi,52.4966,39.9359,24.77,72,18,2.55,RU,1721068599
95,mejit,10.2753,170.8646,27.85,84,51,10.86,MH,1721068600
96,alaghsas,17.0187,8.0168,32.94,46,20,5.14,NE,1721068603
97,avarua,-21.2078,-159.775,22.03,60,40,3.09,CK,1721068604
98,obock,12.25,43.0833,30.13,42,100,10.23,DJ,1721068605
99,ballito,-29.539,31.2144,11.08,82,75,0.51,ZA,1721068606
100,coquimbo,-29.9533,-71.3436,10.85,87,75,3.6,CL,1721068608
101,tangalle,6.024,80.7911,25.09,81,100,4.91,LK,1721068609
102,churachandpur,24.3333,93.6667,24.0,86,100,1.79,IN,1721068610
103,nar'yan-mar,67.6713,53.087,15.46,91,21,3.04,RU,1721068611
104,prien,30.1819,-93.2738,32.23,69,0,2.06,US,1721068613
105,polyarnyy,69.1989,33.4478,14.56,84,0,1.54,RU,1721068614
106,island harbour,50.724,-1.2758,18.02,94,100,2.24,GB,1721068615
107,yuzhno-sukhokumsk,44.6581,45.6436,29.64,32,5,4.63,RU,1721068616
108,malvan,16.0667,73.4667,25.69,87,100,7.34,IN,1721068618
109,kavaratti,10.5669,72.642,27.31,84,100,9.1,IN,1721068619
110,prince rupert,54.3161,-130.3201,16.83,82,58,8.75,CA,1721068620
111,kralendijk,12.15,-68.2667,32.99,58,40,7.72,BQ,1721068621
112,yellowknife,62.456,-114.3525,21.34,59,0,7.2,CA,1721068623
113,yatou,37.15,122.3833,24.23,98,82,2.19,CN,1721068624
114,georgetown,5.4112,100.3354,27.97,83,20,1.54,MY,1721068625
115,klyuchi,52.2667,79.1667,23.93,70,100,3.44,RU,1721068626
116,egbe,8.2167,5.5167,22.91,91,100,1.73,NG,1721068629
117,udachny,66.4167,112.4,18.23,42,100,1.43,RU,1721068630
118,ilulissat,69.2167,-51.1,8.01,76,20,2.57,GL,1721068631
119,katabu,-4.9333,122.5167,22.01,85,4,1.87,ID,1721068633
120,coron,11.9986,120.2043,24.94,92,100,3.13,PH,1721068634
121,mancio lima,-7.6142,-72.8958,26.04,61,20,2.57,BR,1721068635
122,pangai,-19.8,-174.35,23.06,73,75,3.09,TO,1721068636
123,guarapuava,-25.3953,-51.4581,11.68,96,100,2.17,BR,1721068638
124,garca,-22.2106,-49.6561,23.79,43,97,1.87,BR,1721068639
125,revda,56.801,59.9303,12.26,91,83,1.68,RU,1721068640
126,st. john's,47.5649,-52.7093,23.42,77,20,5.14,CA,1721068641
127,tamanrasset,22.785,5.5228,23.95,57,40,5.14,DZ,1721068428
128,ndjole,-0.1783,10.7649,24.75,76,94,1.1,GA,1721068644
129,codrington,-38.2667,141.9667,10.84,89,100,12.87,AU,1721068645
130,thompson,55.7435,-97.8558,13.09,67,100,5.14,CA,1721068646
131,weno,7.4515,151.8468,28.52,74,100,3.44,FM,1721068648
132,cannonvale,-20.2833,148.7,17.66,75,0,1.82,AU,1721068649
133,alghero,40.5589,8.3181,29.05,61,0,3.6,IT,1721068368
134,mont belvieu,29.8477,-94.8908,34.47,68,100,3.17,US,1721068653
135,lhasa,29.65,91.1,12.93,83,100,1.8,CN,1721068654
136,mossel bay,-34.1831,22.146,8.96,76,64,2.67,ZA,1721068655
137,pijijiapan,15.7011,-93.23,35.7,44,9,2.11,MX,1721068492
138,wakkanai,45.4094,141.6739,17.37,87,98,3.59,JP,1721068658
139,nalhati,24.3,87.8167,29.01,80,99,4.16,IN,1721068659
140,kasongo-lunda,-6.4667,16.8167,24.92,26,98,1.52,CD,1721068661
141,uvinza,-5.1036,30.3911,21.59,45,19,1.33,TZ,1721068662
142,wenchang,30.904,118.4887,25.83,89,100,1.99,CN,1721068664
143,ushuaia,-54.8,-68.3,3.81,87,0,1.03,AR,1721068665
144,tura,25.5198,90.2201,24.78,99,100,1.47,IN,1721068666
145,ghadamis,30.1337,9.5007,40.78,9,79,4.47,LY,1721068668
146,bamboo flat,11.7,92.7167,26.05,89,100,2.57,IN,1721068669
147,sitka,57.0531,-135.33,14.94,88,100,0.0,US,1721068670
148,port moresby,-9.4431,147.1797,23.28,74,100,2.68,PG,1721068672
149,constantia,44.1833,28.65,29.38,58,100,0.75,RO,1721068673
150,christchurch,-43.5333,172.6333,7.73,95,100,3.58,NZ,1721068293
151,rio grande,-32.035,-52.0986,17.06,69,0,3.33,BR,1721068676
152,petropavlovsk-kamchatsky,53.0452,158.6483,12.33,94,75,1.0,RU,1721068677
153,keflavik,64.0049,-22.5624,14.95,67,40,3.6,IS,1721068678
154,saldanha,-33.0117,17.9442,12.03,62,85,2.66,ZA,1721068680
155,talnakh,69.4865,88.3972,12.9,73,7,3.9,RU,1721068681
156,longyearbyen,78.2186,15.6401,6.91,87,75,1.03,SJ,1721068492
157,northam,51.0333,-4.2167,15.9,96,94,3.51,GB,1721068684
158,mugia,43.1041,-9.2179,20.09,91,19,6.73,ES,1721068685
159,pauini,-7.7136,-66.9764,31.5,30,5,1.95,BR,1721068686
160,mount pearl,47.5166,-52.7813,22.96,77,20,5.14,CA,1721068688
161,yaren,-0.5472,166.916,28.99,74,41,5.36,NR,1721068689
162,bethel,41.3712,-73.414,33.36,65,20,4.12,US,1721068690
163,newman,37.3138,-121.0208,29.19,21,1,0.66,US,1721068692
164,cockburn town,21.4612,-71.1419,31.98,62,40,7.2,TC,1721068693
165,fougamou,-1.2154,10.5838,24.03,78,99,0.88,GA,1721068694
166,ghat,24.9647,10.1728,37.94,8,5,5.5,LY,1721068696
167,coremas,-7.0144,-37.9458,34.42,21,0,5.14,BR,1721068697
168,el haouaria,37.05,11.0144,30.01,76,0,3.46,TN,1721068698
169,hawaiian paradise park,19.5933,-154.9731,23.74,87,75,3.6,US,1721068699
170,tutoia,-2.7619,-42.2744,28.01,68,1,5.11,BR,1721068701
171,katsuura,35.1333,140.3,22.1,94,100,2.79,JP,1721068702
172,camayenne,9.535,-13.6878,26.05,89,75,4.12,GN,1721068703
173,cieza,38.24,-1.4199,34.72,25,0,1.83,ES,1721068704
174,bikenibeu village,1.3673,173.1241,26.98,94,100,2.57,KI,1721068706
175,saint croix,17.7397,-64.7388,31.25,66,40,5.66,VI,1721068707
176,diok'nisi,41.6293,42.3917,19.52,92,100,1.82,GE,1721068708
177,port alfred,-33.5906,26.891,13.63,69,0,6.28,ZA,1721068709
178,yuktae-dong,40.0247,128.1597,20.9,84,99,1.36,KP,1721068711
179,okhotsk,59.3833,143.3,12.23,96,100,2.43,RU,1721068712
180,papao,-17.75,-149.55,27.82,78,0,7.85,PF,1721068713
181,hamilton,39.1834,-84.5333,34.29,57,20,5.66,US,1721068714
182,layyah,30.9613,70.939,40.46,25,0,2.65,PK,1721068716
183,vanimo,-2.6741,141.3028,24.75,93,100,1.64,PG,1721068717
184,arteche,12.2645,125.4048,26.04,86,100,1.61,PH,1721068718
185,bardai,11.65,7.2333,25.59,74,100,2.75,NG,1721068719
186,utrik,11.2278,169.8474,27.79,84,7,10.43,MH,1721068721
187,novyy urgal,51.0736,132.5642,16.32,90,100,1.04,RU,1721068722
188,vorgashor,67.5833,63.95,14.79,88,34,3.14,RU,1721068723
189,davydovka,51.1578,39.4292,25.33,62,27,2.42,RU,1721068724
190,al hasakah,36.5024,40.7477,36.25,23,0,7.64,SY,1721068726
191,rio gallegos,-51.6226,-69.2181,6.03,70,20,4.63,AR,1721068727
192,hammerfest,70.6634,23.6821,12.25,87,0,6.17,NO,1721068729
193,eforie sud,44.0229,28.6494,29.45,58,100,1.32,RO,1721068731
194,roma,43.2128,-75.4557,32.51,59,40,3.09,US,1721068732
195,jayapura,-2.5333,140.7,24.66,94,100,1.48,ID,1721068733
196,geraldton,-28.7667,114.6,10.23,93,4,3.6,AU,1721068734
197,crane,31.3974,-102.3501,35.08,27,0,6.71,US,1721068736
198,nishinoomote,30.7333,131.0,26.99,84,5,0.74,JP,1721068737
199,matoury,4.8483,-52.3317,29.98,74,100,1.54,GF,1721068738
200,barcelos,41.5388,-8.6151,21.58,78,10,2.26,PT,1721068740
201,ivano-frankivsk,48.9215,24.7097,20.78,83,7,1.22,UA,1721068741
202,namtsy,62.7161,129.6658,16.11,75,0,1.56,RU,1721068742
203,gutierrez zamora,20.45,-97.0833,32.9,68,63,3.52,MX,1721068743
204,cuito,-12.3833,16.9333,14.63,17,37,0.71,AO,1721068745
205,ujae,8.9322,165.7642,28.32,84,99,10.67,MH,1721068746
206,silsbee,30.3491,-94.178,32.86,72,100,0.45,US,1721068747
207,luau,-10.7073,22.2247,20.07,24,7,1.64,AO,1721068748
208,kapa'a,22.0752,-159.319,26.38,69,40,8.23,US,1721068750
209,nadvoitsy,63.8667,34.3167,16.44,83,99,3.38,RU,1721068751
210,lazaro cardenas,17.9583,-102.2,31.48,61,47,5.38,MX,1721068620
211,greymouth,-42.4667,171.2,8.4,91,100,3.48,NZ,1721068753
212,moshkovo,55.3053,83.6104,18.55,79,46,2.42,RU,1721068755
213,nadi,-17.8,177.4167,23.0,88,20,0.0,FJ,1721068653
214,fada n'gourma,12.0622,0.3578,26.45,74,18,1.48,BF,1721068757
215,aykhal,66.0,111.5,16.86,44,100,0.51,RU,1721068758
216,ratangarh,28.0833,74.6,34.93,48,52,3.78,IN,1721068760
217,sontra,51.0667,9.9333,26.5,72,100,1.7,DE,1721068761
218,laojunmiao,39.8333,97.7333,19.74,48,100,4.69,CN,1721068762
219,klaksvik,62.2266,-6.589,10.51,94,100,5.81,FO,1721068763
220,haimen,23.1935,116.6142,26.94,88,100,2.6,CN,1721068765
221,mount isa,-20.7333,139.5,2.87,81,0,0.0,AU,1721068766
222,chipinge,-20.1883,32.6236,13.93,39,0,1.16,ZW,1721068767
223,nova sintra,14.8667,-24.7167,25.69,79,6,3.03,CV,1721068768
224,la'ie,21.6477,-157.9253,25.98,75,99,4.92,US,1721068770
225,bichura,50.5881,107.6022,16.29,67,0,1.12,RU,1721068771
226,mukalla,14.5425,49.1242,30.04,68,77,3.0,YE,1721068772
227,siteki,-26.45,31.95,12.89,83,41,0.87,SZ,1721068773
228,esens,53.6487,7.6127,18.86,82,75,4.12,DE,1721068775
229,yuzhno-kurilsk,44.0306,145.8556,13.87,98,95,1.57,RU,1721068776
230,ixtapa,20.7,-105.2,32.9,66,40,2.57,MX,1721068777
231,princeville,45.7668,-61.2985,30.36,64,0,4.63,CA,1721068778
232,birjand,32.8663,59.2211,29.26,15,0,6.17,IR,1721068780
233,haiku-pauwela,20.9219,-156.3051,24.59,76,40,5.81,US,1721068781
234,kourou,5.1552,-52.6478,30.03,82,100,3.45,GF,1721068782
235,enewetak,11.3474,162.3373,28.48,81,99,10.6,MH,1721068783
236,puerto santa,-8.9906,-78.6456,19.08,72,29,5.22,PE,1721068785
237,labrador city,52.9463,-66.9114,19.95,83,75,4.63,CA,1721068786
238,corinto,37.9407,22.9573,30.5,27,0,1.47,GR,1721068787
239,holualoa,19.6228,-155.9522,24.91,91,40,2.06,US,1721068788
240,hellebaek,56.0682,12.5578,19.47,82,0,0.89,DK,1721068790
241,santa ana,33.7456,-117.8678,30.01,68,75,2.57,US,1721068400
242,tari,-11.1105,14.3559,16.36,81,8,0.83,AO,1721068792
243,olovyannaya,50.95,115.5667,14.26,84,100,1.92,RU,1721068793
244,wotje,9.4543,170.2367,27.97,85,6,10.62,MH,1721068795
245,diamantino,-14.4086,-56.4461,28.89,29,0,2.64,BR,1721068796
246,badger,64.8,-147.5333,13.54,84,75,0.0,US,1721068797
247,strugi-krasnyye,58.2675,29.1114,16.98,74,9,1.12,RU,1721068798
248,puerto baquerizo moreno,-0.9,-89.6,23.55,83,75,7.72,EC,1721068800
249,alofi,-19.0595,-169.9187,13.94,100,4,0.51,NU,1721068801
250,coxen hole,16.3244,-86.5366,31.6,70,20,3.6,HN,1721068802
251,cambria,35.5641,-121.0808,30.43,68,28,3.29,US,1721068804
252,polovinnoye,54.7914,65.9864,17.41,84,100,5.31,RU,1721068805
253,tolanaro,-25.0319,46.9987,22.04,73,0,3.09,MG,1721068806
254,tahe,52.3333,124.7333,16.61,99,100,0.85,CN,1721068807
255,puerto salgar,5.463,-74.6544,33.8,45,1,4.08,CO,1721068809
256,horta,38.5333,-28.6333,24.8,91,40,4.63,PT,1721068810
257,altay,47.8667,88.1167,23.18,27,0,3.57,CN,1721068811
258,san antonio de pale,-1.4014,5.6325,22.58,86,100,4.6,GQ,1721068812
259,catriel,-37.8791,-67.7956,17.6,14,100,3.93,AR,1721068814
260,puerto ayora,-0.7393,-90.3518,25.98,93,94,3.58,EC,1721068815
261,vanino,49.0869,140.2543,16.22,85,100,1.16,RU,1721068816
262,kodiak,57.79,-152.4072,10.73,82,100,2.06,US,1721068817
263,susuman,62.7833,148.1667,10.98,62,0,1.15,RU,1721068819
264,selfoss,63.9331,-20.9971,18.91,73,4,2.02,IS,1721068820
265,praya,14.9215,-23.5087,26.3,78,75,3.09,CV,1721068821
266,volchikha,52.0333,80.3833,21.76,80,91,3.07,RU,1721068822
267,nitra,48.3076,18.0845,29.08,50,0,2.71,SK,1721068824
268,dudinka,69.4058,86.1778,10.95,69,8,3.43,RU,1721068825
269,la ronge,55.1001,-105.2842,13.14,88,100,4.63,CA,1721068826
270,dunbar,38.3606,-81.7374,36.53,45,40,4.02,US,1721068828
271,sint michiel liber,12.15,-68.9833,31.9,66,20,6.17,CW,1721068829
272,okha,53.5739,142.9478,15.33,88,100,2.36,RU,1721068830
273,ziway,7.9333,38.7167,19.82,78,100,4.31,ET,1721068831
274,ola,59.5833,151.2833,11.78,85,78,1.1,RU,1721068833
275,ingeniero jacobacci,-41.3427,-69.5448,4.35,58,100,0.78,AR,1721068834
276,bayanhongor,46.7167,100.1167,12.09,53,10,1.13,MN,1721068836
277,lata,40.1629,-8.3327,22.18,62,0,3.93,PT,1721068837
278,suzemka,52.3178,34.0689,22.28,89,100,2.6,RU,1721068839
279,xinyi,22.373,110.9475,25.66,84,100,1.2,CN,1721068840
280,sao joao da barra,-21.6403,-41.0511,26.05,72,8,8.14,BR,1721068841
281,saint-pol-de-leon,48.6833,-3.9833,19.32,72,75,6.26,FR,1721068842
282,san luis de la loma,17.2706,-100.8939,30.96,66,51,3.39,MX,1721068844
283,gisborne,-38.6533,178.0042,13.09,97,100,2.75,NZ,1721068845
284,alice springs,-23.7,133.8833,4.75,75,0,2.57,AU,1721068846
285,nizhniy kuranakh,58.8353,125.4869,13.63,98,58,1.64,RU,1721068848
286,wangjing,24.6,94.0333,25.39,95,99,0.48,IN,1721068849
287,caleta de carquin,-11.0925,-77.6267,19.0,70,12,4.87,PE,1721068850
288,kingston,17.997,-76.7936,32.53,70,20,7.2,JM,1721068851
289,pacific grove,36.6177,-121.9166,19.34,83,100,3.09,US,1721068853
290,sydney,-33.8679,151.2073,9.84,63,20,5.14,AU,1721068426
291,la passe,45.5549,-0.8967,22.13,78,1,5.8,FR,1721068855
292,kuqa,41.7278,82.9364,31.38,20,93,3.18,CN,1721068856
293,tralee,52.2704,-9.7026,16.21,91,100,2.7,IE,1721068859
294,vila franca do campo,37.7167,-25.4333,23.23,80,28,3.75,PT,1721068860
295,bay roberts,47.5999,-53.2648,23.62,78,45,2.24,CA,1721068861
296,temiskaming shores,47.4938,-79.7153,20.89,42,100,2.56,CA,1721068863
297,kyren,51.6828,102.1408,15.39,91,93,1.46,RU,1721068864
298,carauari,-4.8828,-66.8958,32.66,33,14,1.88,BR,1721068865
299,navrongo,10.8956,-1.0921,25.19,78,100,2.18,GH,1721068866
300,kudahuvadhoo,2.6708,72.8944,29.08,74,99,3.94,MV,1721068868
301,sinan,34.8262,126.1086,25.06,96,98,8.09,KR,1721068869
302,inderbor,48.55,51.7833,29.45,36,6,5.63,KZ,1721068870
303,sao desiderio,-12.3633,-44.9733,31.45,20,0,3.6,BR,1721068872
304,vila velha,-20.3297,-40.2925,29.97,57,0,4.63,BR,1721068873
305,salonta,46.8,21.65,27.49,73,63,8.74,RO,1721068874
306,boke,10.9409,-14.2967,25.05,93,100,2.66,GN,1721068875
307,nizhnyaya poyma,56.1622,97.1933,14.91,81,75,1.24,RU,1721068877
308,kokopo,-4.352,152.2633,24.88,86,100,4.97,PG,1721068878
309,saipan,15.1355,145.701,28.39,83,20,4.12,MP,1721068879
310,mahanoro,-19.9,48.8,19.87,86,97,2.08,MG,1721068880
311,kiama,-34.6833,150.8667,11.88,60,100,6.26,AU,1721068882
312,kovdor,67.5662,30.4758,15.29,66,0,1.93,RU,1721068883
313,melilla,35.2937,-2.9383,33.11,27,0,5.14,ES,1721068885
314,plesetsk,62.708,40.2916,15.68,93,100,1.97,RU,1721068887
315,arraial do cabo,-22.9661,-42.0278,22.98,78,75,5.66,BR,1721068889
316,ma'an,26.9775,110.7211,25.13,85,75,2.06,CN,1721068890
317,matam,15.6175,-13.3303,37.0,49,40,2.06,SN,1721068892
318,maracacume,-2.0428,-45.9592,32.47,43,55,1.24,BR,1721068893
319,itoman,26.1247,127.6694,30.01,82,40,4.12,JP,1721068894
320,bataysk,47.1398,39.7518,31.47,24,82,2.94,RU,1721068896
321,flin flon,54.7682,-101.865,17.91,48,75,5.14,CA,1721068897
322,leduc,53.2668,-113.552,24.88,61,75,2.57,CA,1721068898
323,lebu,-37.6167,-73.65,10.72,75,100,1.58,CL,1721068899
324,marsh harbour,26.5412,-77.0636,28.93,71,5,5.11,BS,1721068901
325,bel ombre,-4.6167,55.4167,25.91,78,20,7.2,SC,1721068902
326,patos de minas,-18.5789,-46.5181,26.24,24,30,2.99,BR,1721068903
327,fortuna,40.5982,-124.1573,17.51,81,0,4.63,US,1721068905
328,vadso,70.0744,29.7487,11.49,100,100,6.17,NO,1721068906
329,coeur d'alene,47.6777,-116.7805,29.37,30,0,4.12,US,1721068470
330,san juan pueblo,15.5833,-87.2333,30.31,81,86,2.61,HN,1721068908
331,poso,-1.3959,120.7524,24.21,90,57,2.51,ID,1721068909
332,leavenworth,39.2333,-95.0336,35.62,61,1,0.45,US,1721068911
333,taulaga,-11.0553,-171.0883,28.23,75,96,7.78,AS,1721068912
334,walvis bay,-22.9575,14.5053,15.53,67,0,1.54,NA,1721068913
335,rongelap,11.1635,166.8941,27.98,84,44,10.18,MH,1721068915
336,nikol'sk,53.7189,46.0712,19.25,71,4,2.73,RU,1721068916
337,miles city,46.4083,-105.8406,26.54,41,0,2.57,US,1721068917
338,mollendo,-17.0231,-72.0147,16.49,70,67,4.24,PE,1721068918
339,atar,20.5169,-13.0499,37.69,21,0,6.46,MR,1721068920
340,kirensk,57.7853,108.1119,15.85,95,79,1.49,RU,1721068921
341,nova vicosa,-17.8919,-39.3719,26.03,59,0,4.24,BR,1721068922
342,tailai,46.3833,123.4,24.64,65,0,6.88,CN,1721068923
343,kharkhorin,47.1975,102.8238,15.5,50,3,1.66,MN,1721068925
344,souillac,-20.5167,57.5167,23.21,56,75,7.2,MU,1721068926
345,praia da vitoria,38.7333,-27.0667,27.14,69,20,4.15,PT,1721068927
346,panyam,9.4167,9.2167,20.47,90,100,1.48,NG,1721068928
347,ampanihy,-24.7,44.75,17.71,88,0,1.46,MG,1721068930
348,broken hill,-31.95,141.4333,6.2,88,69,6.64,AU,1721068931
349,kosh-agach,50.0,88.6667,15.32,44,15,1.44,RU,1721068932
350,port lincoln,-34.7333,135.8667,11.55,69,100,7.02,AU,1721068933
351,posto fiscal rolim de moura,-13.0833,-62.2667,30.47,30,0,1.84,BR,1721068935
352,paraty,-23.2178,-44.7131,21.64,81,62,1.57,BR,1721068936
353,kapuskasing,49.4169,-82.4331,23.05,60,100,1.03,CA,1721068939
354,lo prado,-33.4443,-70.7255,17.63,43,100,1.54,CL,1721068940
355,arica,-18.475,-70.3042,19.75,67,0,4.63,CL,1721068941
356,shiyan,32.6475,110.7781,24.24,97,100,0.55,CN,1721068942
357,pokaran,26.9167,71.9167,37.39,37,100,5.23,IN,1721068944
358,la sarre,48.8002,-79.1996,25.74,55,12,3.43,CA,1721068945
359,nemuro,43.3236,145.575,15.2,98,62,3.02,JP,1721068946
360,prince george,53.9166,-122.753,25.69,44,0,3.6,CA,1721068947
361,severo-yeniseyskiy,60.3725,93.0408,14.06,94,24,1.01,RU,1721068949
362,kailua-kona,19.6406,-155.9956,26.98,91,40,2.06,US,1721068951
363,kone,-21.0595,164.8658,16.58,95,0,0.61,NC,1721068952
364,cataingan,12.003,123.992,25.83,88,100,2.14,PH,1721068954
365,kenai,60.5544,-151.2583,13.34,76,100,0.0,US,1721068955
366,saint-philippe,-21.3585,55.7679,20.77,75,52,5.61,RE,1721068956
367,ponta delgada,37.7333,-25.6667,23.4,94,75,3.6,PT,1721068957
368,grand falls-windsor,48.9332,-55.6649,18.21,90,100,4.17,CA,1721068959
369,itaqui,-29.1253,-56.5531,16.44,70,98,6.24,BR,1721068960
370,kozlovka,55.8428,48.2492,17.67,79,8,2.07,RU,1721068962
371,woolgoolga,-30.1106,153.2007,6.13,67,0,5.16,AU,1721068964
372,delijan,33.9905,50.6838,29.82,19,0,1.89,IR,1721068966
373,tual,-5.6667,132.75,25.49,79,95,7.83,ID,1721068967
374,nuuk,64.1835,-51.7216,7.34,81,75,2.57,GL,1721068969
375,swakopmund,-22.6833,14.5333,15.47,83,0,3.1,NA,1721068970
376,gangawati,15.4333,76.5333,23.85,86,100,6.99,IN,1721068971
377,kill devil hills,36.0307,-75.676,34.01,63,0,5.14,US,1721068973
378,dunedin,-45.8742,170.5036,7.67,97,100,0.89,NZ,1721068874
379,toliara,-23.35,43.6667,20.81,81,2,1.64,MG,1721068975
380,zaoyang,32.1272,112.7542,25.43,96,100,3.19,CN,1721068976
381,kaliua,-5.0606,31.7936,21.35,27,80,2.37,TZ,1721068978
382,arkhangel'sk,64.5401,40.5433,16.06,100,75,1.0,RU,1721068979
383,hue,16.4667,107.6,26.06,94,40,0.51,VN,1721068980
384,al fashn,28.8243,30.8995,33.58,25,0,7.53,EG,1721068981
385,charlottetown,46.2352,-63.1267,30.29,60,75,4.12,CA,1721068983
386,mananara,-16.1667,49.7667,18.77,90,23,2.1,MG,1721068984
387,hun,29.1268,15.9477,36.15,12,0,4.67,LY,1721068985
388,chibougamau,49.9168,-74.3659,23.79,60,40,6.17,CA,1721068986
389,lewiston orchards,46.3804,-116.9754,32.62,15,0,0.0,US,1721068988
390,sultandagi,38.5311,31.2281,22.01,38,5,1.23,TR,1721068989
391,port shepstone,-30.7414,30.455,15.52,54,0,3.35,ZA,1721068990
392,baikonur,45.6167,63.3167,24.1,44,49,0.64,KZ,1721068991
393,kyshtovka,56.555,76.6271,18.33,95,100,2.26,RU,1721068993
394,basse-terre,16.1667,-61.6667,26.58,78,0,5.14,GP,1721068994
395,hami,42.8,93.45,33.21,17,100,5.73,CN,1721068995
396,phan rang-thap cham,11.5667,108.9833,25.22,88,100,0.97,VN,1721068996
397,bandarbeyla,9.4942,50.8122,25.29,82,19,14.24,SO,1721068998
398,lodja,-3.4833,23.4333,25.57,26,85,0.84,CD,1721068999
399,boiling springs,35.0465,-81.9818,36.13,43,0,2.57,US,1721069000
400,raton,36.9034,-104.4391,35.19,20,0,6.69,US,1721069001
401,al hada,21.3675,40.2869,26.66,15,100,1.22,SA,1721069003
402,suncho corral,-27.9336,-63.4294,19.31,30,4,4.03,AR,1721069004
403,alexandroupoli,40.8475,25.8744,31.9,27,0,3.6,GR,1721069005
404,marine corps base hawaii - mcbh,21.4453,-157.7513,26.14,77,100,3.58,US,1721069006
405,chitipa,-9.7024,33.2697,13.56,76,58,2.48,MW,1721069008
406,itagi,-14.1628,-40.0061,25.24,52,100,2.12,BR,1721069009
407,rosetta,31.4044,30.4164,26.98,71,0,4.84,EG,1721069010
408,macheng,31.1783,115.0319,25.59,88,100,2.58,CN,1721069011
409,korla,41.7597,86.1469,30.69,19,7,1.97,CN,1721069013
410,sittwe,20.15,92.9,27.35,89,100,7.18,MM,1721069014
411,axim,4.8699,-2.2405,24.31,88,100,4.06,GH,1721069015
412,lackland air force base,29.3866,-98.618,35.68,50,40,3.6,US,1721069016
413,kaiapoi,-43.3783,172.6401,7.82,95,100,2.06,NZ,1721069018
414,ust'-kut,56.7938,105.7672,14.11,96,17,1.19,RU,1721069019
415,opuwo,-18.0607,13.84,18.68,10,20,2.81,NA,1721069020
416,guajara,-2.9667,-57.6667,33.68,40,38,1.43,BR,1721069022
417,aljezur,37.3191,-8.8033,19.05,78,0,5.93,PT,1721069023
418,glace bay,46.1969,-59.957,31.25,61,75,5.66,CA,1721069024
419,tongchuan,35.0806,109.0897,22.05,92,100,0.99,CN,1721069025
420,belene,43.65,25.1167,32.28,21,1,6.5,BG,1721069027
421,anloga,5.7947,0.8973,24.45,89,99,7.29,GH,1721069028
422,tempio pausania,40.8974,9.1035,26.51,66,0,0.91,IT,1721069029
423,hell-ville,-13.4,48.2667,25.27,67,93,1.79,MG,1721069030
424,strezhevoy,60.7333,77.5889,17.37,92,37,3.04,RU,1721069032
425,robertsport,6.7533,-11.3686,25.6,78,100,5.83,LR,1721069033
426,weyburn,49.6668,-103.8511,22.12,53,63,4.63,CA,1721069034
427,tocopilla,-22.092,-70.1979,19.49,69,21,5.6,CL,1721069035
428,rocky mountain house,52.3668,-114.9188,24.06,43,100,2.06,CA,1721069037
429,itaituba,-4.2761,-55.9836,36.09,36,40,2.57,BR,1721069038
430,sao felix do xingu,-6.6447,-51.995,34.93,20,1,2.73,BR,1721069039
431,luanda,-8.8368,13.2343,22.0,73,92,3.09,AO,1721069040
432,kerikeri,-35.2268,173.9474,10.01,97,20,1.46,NZ,1721069042
433,tazovsky,67.4667,78.7,8.39,68,0,3.91,RU,1721069043
434,palikir - national government center,6.9248,158.1611,27.53,79,100,8.47,FM,1721069044
435,airway heights,47.6446,-117.5933,28.94,24,20,5.66,US,1721069045
436,longboat key,27.4125,-82.659,35.05,57,40,2.57,US,1721069047
437,quellon,-43.1167,-73.6167,8.0,95,100,6.47,CL,1721069048
438,barddhaman,23.25,87.85,28.49,84,100,4.28,IN,1721069049
439,penzance,50.1186,-5.5371,15.38,88,100,5.1,GB,1721069052
440,kuloy,61.0305,42.4925,19.46,74,100,1.6,RU,1721068805
441,jiexiu,37.0244,111.9125,21.88,91,100,0.65,CN,1721069054
442,port-gentil,-0.7193,8.7815,22.98,88,40,4.63,GA,1721069056
443,hoemul-li,41.4339,129.67,18.56,96,3,0.61,KP,1721069057
444,petrovsk-zabaykal'skiy,51.273,108.843,13.19,67,17,0.74,RU,1721069058
445,guerrero negro,27.9769,-114.0611,24.94,57,5,5.7,MX,1721069059
446,piacabucu,-10.4056,-36.4344,25.65,71,19,4.68,BR,1721069061
447,urzhar,47.093,81.6294,21.12,75,100,0.27,KZ,1721069062
448,burutu,5.3509,5.5076,24.79,92,100,3.8,NG,1721069063
449,qaqortoq,60.7167,-46.0333,5.21,84,48,3.19,GL,1721069064
450,goondiwindi,-28.55,150.3167,5.3,88,3,3.65,AU,1721069066
451,nyurba,63.2842,118.3319,15.96,95,100,0.71,RU,1721069067
452,swan hill,-35.3378,143.5544,9.25,74,99,9.64,AU,1721069068
453,cidreira,-30.1811,-50.2056,16.46,75,48,3.55,BR,1721069069
454,meadow lake,34.8014,-106.5436,35.78,22,3,4.71,US,1721069071
455,madingou,-4.1536,13.55,27.25,54,100,2.22,CG,1721069072
456,saint john,45.2727,-66.0677,26.57,61,75,9.26,CA,1721069073
457,mirny,62.5353,113.9611,16.04,87,100,0.89,RU,1721069074
458,gao,16.6362,1.637,36.02,34,100,1.26,ML,1721069076
459,batticaloa,7.7102,81.6924,29.49,62,100,4.52,LK,1721069077
460,isla vista,34.4133,-119.861,28.88,48,4,3.37,US,1721069078
461,osh,40.5151,72.8083,23.36,53,20,3.0,KG,1721069080
462,usinsk,65.9939,57.5281,17.38,65,20,1.59,RU,1721069081
463,andilamena,-17.0167,48.5833,11.81,97,52,2.2,MG,1721069082
464,usogorsk,63.4106,48.6872,18.69,63,65,1.49,RU,1721069084
465,goure,13.9835,10.2704,30.96,50,97,5.04,NE,1721069085
466,along,28.1667,94.7667,22.39,99,100,0.2,IN,1721068906
467,buala,-8.145,159.5921,25.82,85,23,1.11,SB,1721069087
468,cuero,29.0939,-97.2892,34.26,67,62,3.58,US,1721069089
469,shimoda,34.6667,138.95,22.84,94,100,3.27,JP,1721069090
470,golfito,8.639,-83.166,26.33,85,100,1.79,CR,1721069092
471,el jadid,33.2549,-8.506,22.44,82,0,7.27,MA,1721069094
472,taltal,-25.4,-70.4833,17.42,64,8,2.94,CL,1721069095
473,hashtrud,37.4779,47.0508,21.11,45,0,2.21,IR,1721069096
474,abu jibeha,11.4562,31.2285,23.49,80,17,2.58,SD,1721069098
475,shache,38.4167,77.2406,24.07,46,89,10.85,CN,1721069099
476,norrtalje,59.758,18.705,18.1,79,100,2.76,SE,1721069100
477,laguna,38.421,-121.4238,31.08,38,0,3.6,US,1721069101
478,launceston,-41.45,147.1667,10.64,93,75,4.12,AU,1721069103
479,belgaum,15.8667,74.5,20.61,96,100,5.71,IN,1721069104
480,ajaccio,42.0,8.9167,25.03,61,0,2.57,FR,1721069105
481,saudarkrokur,65.7461,-19.6394,15.05,66,36,2.66,IS,1721069107
482,myeik,12.4333,98.6,25.05,92,100,1.65,MM,1721069108
483,buka,40.8108,69.1986,25.98,32,95,2.22,UZ,1721069109
484,shubarshi,48.5872,57.1869,21.6,73,14,5.89,KZ,1721069110
485,sechura,-5.5569,-80.8222,24.28,56,9,6.75,PE,1721069113
486,bunyan,38.8463,35.8603,20.12,70,6,1.76,TR,1721069114
487,richards bay,-28.783,32.0377,15.88,62,6,0.6,ZA,1721069115
488,monte patria,-30.6919,-70.9467,21.71,15,100,1.57,CL,1721069117
489,labasa,-16.4167,179.3833,23.77,94,53,2.92,FJ,1721069118
490,cape town,-33.9258,18.4232,13.84,67,0,5.66,ZA,1721068832
491,jingdezhen,29.2947,117.2079,26.59,88,100,1.05,CN,1721069120
492,bermeo,43.4209,-2.7215,22.55,68,51,1.08,ES,1721069122
493,zhenlai,45.8495,123.2973,24.55,68,0,7.4,CN,1721069123
494,minas de marcona,-15.2119,-75.1103,14.84,61,35,6.9,PE,1721069124
495,ulsteinvik,62.3432,5.8487,16.66,94,99,1.27,NO,1721069125
496,port saint john's,-31.6229,29.5448,15.23,50,0,2.91,ZA,1721069127
497,mogadishu,2.0371,45.3438,25.24,86,87,7.57,SO,1721069128
498,saraktash,51.7866,51.7866,19.65,82,1,3.34,RU,1721069131
499,severobaykal'sk,55.65,109.3167,11.56,86,8,1.9,RU,1721069132
500,la gi,10.6667,107.7833,25.14,91,100,3.88,VN,1721069133
501,borovskoy,53.8,64.15,17.61,92,100,6.75,KZ,1721069134
502,pico truncado,-46.7949,-67.9573,7.18,67,100,10.5,AR,1721069136
503,presidente olegario,-18.4178,-46.4181,25.29,26,38,2.82,BR,1721069137
504,wanlaweyn,2.6185,44.8938,24.95,77,50,7.4,SO,1721069138
505,peniche,39.3558,-9.3811,22.38,82,0,4.53,PT,1721069139
506,gamba,-2.65,10.0,21.18,96,100,2.85,GA,1721069141
507,saint-leu,-21.15,55.2833,20.53,84,35,2.58,RE,1721069142
508,porto novo,6.4965,2.6036,25.9,85,99,4.6,BJ,1721069143
509,visakhapatnam,17.69,83.2093,26.94,100,75,1.03,IN,1721069144
510,plymouth,41.8334,-70.8328,34.01,68,0,5.66,US,1721069147
511,hovd,48.0056,91.6419,23.02,36,0,2.26,MN,1721069148
512,velikiy novgorod,58.5167,31.2833,18.66,68,5,2.58,RU,1721069150
513,buckhannon,38.994,-80.232,34.34,48,0,2.24,US,1721069151
514,yemva,62.59,50.8594,18.06,54,8,1.41,RU,1721069152
515,narvik,68.4384,17.4272,22.99,50,3,0.38,NO,1721069153
516,santa marta,11.2408,-74.199,34.03,62,20,2.06,CO,1721069155
517,tongchuanshi,35.0806,109.0897,22.05,92,100,0.99,CN,1721069156
518,al khums,32.6486,14.2619,26.61,72,0,3.34,LY,1721069157
519,kavarna,43.4333,28.3333,25.71,65,99,3.17,BG,1721069158
520,shchuchinsk,52.9333,70.2,17.74,93,100,3.35,KZ,1721069160
521,funafuti,-8.5243,179.1942,29.0,84,40,6.17,TV,1721069161
522,kyustendil,42.2839,22.6911,24.69,27,0,1.95,BG,1721069162
523,bandar lampung,-5.4254,105.258,21.65,92,100,1.31,ID,1721069163
524,cromwell,41.5951,-72.6454,34.3,64,40,5.14,US,1721069166
525,quartu sant'elena,39.2419,9.1839,28.95,61,0,2.06,IT,1721069167
526,inari,68.906,27.0288,24.11,59,0,0.76,FI,1721069168
527,san juan de miraflores,-12.1629,-76.9635,20.09,72,71,3.75,PE,1721069170
528,doma,8.3833,8.35,26.19,83,89,1.16,NG,1721069171
529,kolonia town,6.964,158.206,27.97,80,100,8.52,FM,1721069173
530,wuchang,44.9143,127.15,21.36,90,4,2.5,CN,1721069175
531,moussoro,13.6408,16.4901,30.7,51,48,5.25,TD,1721069176
532,orange city,28.9489,-81.2987,33.86,63,75,2.06,US,1721069177
533,meadow lakes,61.6247,-149.6011,13.64,72,100,2.57,US,1721069179
534,altai,46.3722,96.2583,17.82,32,6,0.58,MN,1721069180
535,coyhaique,-45.5752,-72.0662,5.34,100,100,1.48,CL,1721069181
536,yaounde,3.8667,11.5167,23.74,83,40,2.57,CM,1721069182
537,gaspe,48.8334,-64.4819,24.12,83,100,8.23,CA,1721069184
538,maiduguri,11.8464,13.1603,30.23,53,9,2.02,NG,1721069185
539,naha,26.2125,127.6811,29.95,83,40,4.12,JP,1721069186
540,dunkirk,51.05,2.3667,18.41,87,100,1.74,FR,1721069187
541,praia,14.9215,-23.5087,26.3,78,75,3.09,CV,1721069189
542,wotho,10.1657,166.0102,28.17,84,100,10.75,MH,1721069190
543,ziniare,12.5822,-1.2983,31.02,74,100,1.81,BF,1721069191
544,thunder bay,48.4001,-89.3168,18.99,88,100,1.54,CA,1721069192
545,kabalo,-6.05,26.9167,26.78,25,6,2.34,CD,1721069194
546,sao tome,0.3365,6.7273,26.02,73,75,4.63,ST,1721069195
547,cartagena,10.3997,-75.5144,33.79,62,20,5.14,CO,1721069196
548,cururupu,-1.8283,-44.8683,31.11,48,0,2.99,BR,1721069197
549,bonthe,7.5264,-12.505,25.2,83,100,4.73,SL,1721069199
550,akureyri,65.6835,-18.0878,18.96,55,0,6.17,IS,1721069200
551,ocos,14.5094,-92.1933,34.1,72,99,2.31,GT,1721069201
552,auerbach,50.5167,12.4,23.88,58,95,1.27,DE,1721069202
553,kadugli,11.0167,29.7167,21.94,86,36,1.61,SD,1721069204
554,sabha,27.0377,14.4283,36.72,12,5,2.4,LY,1721069205
555,yakeshi,49.2833,120.7333,16.62,98,99,0.69,CN,1721069206
556,ketchikan,55.3422,-131.6461,16.26,88,75,4.63,US,1721069207
557,fisterra,42.9049,-9.2629,20.01,92,19,6.17,ES,1721069209
558,fale old settlement,-9.3852,-171.2468,28.72,73,11,8.39,TK,1721069210
559,macapa,0.0389,-51.0664,32.99,62,40,3.6,BR,1721069211
560,dubbo,-32.25,148.6167,4.07,100,100,3.6,AU,1721069212
561,nieuw amsterdam,5.8833,-55.0833,33.01,62,40,0.51,SR,1721069215
562,quilmana,-12.95,-76.3833,18.54,68,0,4.07,PE,1721069216
563,hotan,37.0997,79.9269,28.63,30,2,2.42,CN,1721069217
564,mumford,5.2618,-0.759,23.95,91,100,5.96,GH,1721069219
565,magadan,59.5667,150.8,11.07,92,46,1.95,RU,1721069220
566,kitimat,54.0524,-128.6534,24.21,67,9,4.02,CA,1721069221
567,sisimiut,66.9395,-53.6735,6.8,79,64,3.81,GL,1721069222
568,shenjiamen,29.9576,122.298,25.88,95,100,8.8,CN,1721069224
569,fort st. john,56.2499,-120.8529,25.94,44,40,3.09,CA,1721069223
570,aban,56.67,96.06,17.77,72,81,2.61,RU,1721069226
571,inirida,3.8653,-67.9239,26.0,93,85,1.33,CO,1721069227
572,petrolina,-9.3986,-40.5008,30.03,37,20,4.12,BR,1721069229
573,krivosheino,57.3431,83.9261,21.42,67,100,1.94,RU,1721069230
574,tomatlan,19.9333,-105.25,34.51,50,5,3.39,MX,1721069231
575,le pouliguen,47.2697,-2.4278,18.97,85,0,9.44,FR,1721069234
576,tres lagoas,-20.7511,-51.6783,27.63,33,99,2.0,BR,1721069235
577,namibe,-15.1961,12.1522,17.26,87,73,2.36,AO,1721069237
